[
  {
    "year": "2016",
    "is_aggregate": null,
    "stations": [
      {
        "id": "1387",
        "name": "A CORUÑA",
        "province": "A CORUÑA",
        "city": "A CORUÑA",
        "altitude": 58.0,
        "longitude": "0825172",
        "latitude": "432157",
        "datum": "ETRS89"
      },
      {
        "id": "1387E",
        "name": "A CORUÑA/ALVEDRO",
        "province": "A CORUÑA",
        "city": "CULLEREDO",
        "altitude": 98.0,
        "longitude": "0822192",
        "latitude": "431825",
        "datum": "ETRS89"
      },
      {
        "id": "1428",
        "name": "SANTIAGO DE COMPOSTELA/LABACOLLA",
        "province": "A CORUÑA",
        "city": "O PINO",
        "altitude": 370.0,
        "longitude": "0824382",
        "latitude": "425317",
        "datum": "ETRS89"
      },
      {
        "id": "8175",
        "name": "ALBACETE/LOS LLANOS",
        "province": "ALBACETE",
        "city": "ALBACETE",
        "altitude": 702.0,
        "longitude": "0151232",
        "latitude": "385715",
        "datum": "ETRS89"
      },
      {
        "id": "8178D",
        "name": "ALBACETE,OBS.",
        "province": "ALBACETE",
        "city": "ALBACETE",
        "altitude": 674.0,
        "longitude": "0151442",
        "latitude": "390020",
        "datum": "ETRS89"
      },
      {
        "id": "8025",
        "name": "ALICANTE",
        "province": "ALICANTE",
        "city": "ALICANTE/ALACANT",
        "altitude": 81.0,
        "longitude": "0029392",
        "latitude": "382221",
        "datum": "ETRS89"
      },
      {
        "id": "8019",
        "name": "ALICANTE-ELCHE/AEROPUERTO",
        "province": "ALICANTE",
        "city": "ELCHE/ELX",
        "altitude": 43.0,
        "longitude": "0034152",
        "latitude": "381658",
        "datum": "ETRS89"
      },
      {
        "id": "6325O",
        "name": "ALMERÍA/AEROPUERTO",
        "province": "ALMERIA",
        "city": "ALMERÍA",
        "altitude": 21.0,
        "longitude": "0221252",
        "latitude": "365047",
        "datum": "ETRS89"
      },
      {
        "id": "9091O",
        "name": "FORONDA-TXOKIZA",
        "province": "ARABA/ALAVA",
        "city": "VITORIA-GASTEIZ",
        "altitude": 513.0,
        "longitude": "0244062",
        "latitude": "425255",
        "datum": "ETRS89"
      },
      {
        "id": "1212E",
        "name": "ASTURIAS/AVILÉS",
        "province": "ASTURIAS",
        "city": "CASTRILLÓN",
        "altitude": 127.0,
        "longitude": "0602392",
        "latitude": "433401",
        "datum": "ETRS89"
      },
      {
        "id": "1208H",
        "name": "GIJÓN, MUSEL",
        "province": "ASTURIAS",
        "city": "GIJÓN",
        "altitude": 5.0,
        "longitude": "0542032",
        "latitude": "433336",
        "datum": "ETRS89"
      },
      {
        "id": "1249I",
        "name": "OVIEDO",
        "province": "ASTURIAS",
        "city": "OVIEDO",
        "altitude": 336.0,
        "longitude": "0552272",
        "latitude": "432112",
        "datum": "ETRS89"
      },
      {
        "id": "2444",
        "name": "ÁVILA",
        "province": "AVILA",
        "city": "ÁVILA",
        "altitude": 1130.0,
        "longitude": "0440482",
        "latitude": "403933",
        "datum": "ETRS89"
      },
      {
        "id": "4452",
        "name": "BADAJOZ/TALAVERA LA REAL",
        "province": "BADAJOZ",
        "city": "BADAJOZ",
        "altitude": 185.0,
        "longitude": "0648502",
        "latitude": "385300",
        "datum": "ETRS89"
      },
      {
        "id": "B954",
        "name": "IBIZA/ES CODOLÁ",
        "province": "BALEARES",
        "city": "SANT JOSEP DE SA TALAIA",
        "altitude": 6.0,
        "longitude": "0123041",
        "latitude": "385235",
        "datum": "ETRS89"
      },
      {
        "id": "B893",
        "name": "MENORCA/AEROPUERTO",
        "province": "BALEARES",
        "city": "MAÓ-MAHÓN",
        "altitude": 91.0,
        "longitude": "0412561",
        "latitude": "395117",
        "datum": "ETRS89"
      },
      {
        "id": "B228",
        "name": "PALMA DE MALLORCA, CMT",
        "province": "BALEARES",
        "city": "PALMA",
        "altitude": 3.0,
        "longitude": "0237311",
        "latitude": "393312",
        "datum": "ETRS89"
      },
      {
        "id": "B278",
        "name": "PALMA DE MALLORCA/SON SAN JUAN",
        "province": "BALEARES",
        "city": "PALMA",
        "altitude": 8.0,
        "longitude": "0244121",
        "latitude": "393339",
        "datum": "ETRS89"
      },
      {
        "id": "0200E",
        "name": "BARCELONA (FABRA)",
        "province": "BARCELONA",
        "city": "BARCELONA",
        "altitude": 408.0,
        "longitude": "0207271",
        "latitude": "412506",
        "datum": "ETRS89"
      },
      {
        "id": "0076",
        "name": "BARCELONA/AEROPUERTO",
        "province": "BARCELONA",
        "city": "EL PRAT DE LLOBREGAT",
        "altitude": 4.0,
        "longitude": "0204121",
        "latitude": "411734",
        "datum": "ETRS89"
      },
      {
        "id": "1082",
        "name": "BILBAO/AEROPUERTO",
        "province": "BIZKAIA",
        "city": "LOIU",
        "altitude": 42.0,
        "longitude": "0254232",
        "latitude": "431753",
        "datum": "ETRS89"
      },
      {
        "id": "2331",
        "name": "BURGOS/VILLAFRÍA",
        "province": "BURGOS",
        "city": "BURGOS",
        "altitude": 891.0,
        "longitude": "0337132",
        "latitude": "422125",
        "datum": "ETRS89"
      },
      {
        "id": "3469A",
        "name": "CÁCERES",
        "province": "CACERES",
        "city": "CÁCERES",
        "altitude": 394.0,
        "longitude": "0620202",
        "latitude": "392817",
        "datum": "ETRS89"
      },
      {
        "id": "5973",
        "name": "CÁDIZ,OBS.",
        "province": "CADIZ",
        "city": "CÁDIZ",
        "altitude": 2.0,
        "longitude": "0615282",
        "latitude": "362959",
        "datum": "ETRS89"
      },
      {
        "id": "5960",
        "name": "JEREZ DE LA FRONTERA/AEROPUERTO",
        "province": "CADIZ",
        "city": "JEREZ DE LA FRONTERA",
        "altitude": 27.0,
        "longitude": "0603212",
        "latitude": "364502",
        "datum": "ETRS89"
      },
      {
        "id": "5910",
        "name": "ROTA B.N.OBSERVATORIO'",
        "province": "CADIZ",
        "city": "ROTA",
        "altitude": 21.0,
        "longitude": "0619572",
        "latitude": "363820",
        "datum": "ETRS89"
      },
      {
        "id": "6001",
        "name": "TARIFA",
        "province": "CADIZ",
        "city": "TARIFA",
        "altitude": 32.0,
        "longitude": "0535562",
        "latitude": "360050",
        "datum": "ETRS89"
      },
      {
        "id": "1111",
        "name": "SANTANDER I,CMT",
        "province": "CANTABRIA",
        "city": "SANTANDER",
        "altitude": 52.0,
        "longitude": "0348022",
        "latitude": "432928",
        "datum": "ETRS89"
      },
      {
        "id": "1109",
        "name": "SANTANDER/PARAYAS",
        "province": "CANTABRIA",
        "city": "CAMARGO",
        "altitude": 3.0,
        "longitude": "0349322",
        "latitude": "432526",
        "datum": "ETRS89"
      },
      {
        "id": "8500A",
        "name": "CASTELLÓN-ALMASSORA",
        "province": "CASTELLON",
        "city": "ALMASSORA",
        "altitude": 43.0,
        "longitude": "0004192",
        "latitude": "395726",
        "datum": "ETRS89"
      },
      {
        "id": "5000C",
        "name": "CEUTA",
        "province": "CEUTA",
        "city": "CEUTA",
        "altitude": 87.0,
        "longitude": "0520492",
        "latitude": "355319",
        "datum": "ETRS89"
      },
      {
        "id": "4121",
        "name": "CIUDAD REAL",
        "province": "CIUDAD REAL",
        "city": "CIUDAD REAL",
        "altitude": 628.0,
        "longitude": "0355132",
        "latitude": "385921",
        "datum": "ETRS89"
      },
      {
        "id": "5402",
        "name": "CÓRDOBA/AEROPUERTO",
        "province": "CORDOBA",
        "city": "CÓRDOBA",
        "altitude": 90.0,
        "longitude": "0450482",
        "latitude": "375056",
        "datum": "ETRS89"
      },
      {
        "id": "8096",
        "name": "CUENCA",
        "province": "CUENCA",
        "city": "CUENCA",
        "altitude": 948.0,
        "longitude": "0207552",
        "latitude": "400402",
        "datum": "ETRS89"
      },
      {
        "id": "1014",
        "name": "HONDARRIBIA-MALKARROA",
        "province": "GIPUZKOA",
        "city": "HONDARRIBIA",
        "altitude": 4.0,
        "longitude": "0147322",
        "latitude": "432125",
        "datum": "ETRS89"
      },
      {
        "id": "1024E",
        "name": "SAN SEBASTIÁN,IGUELDO",
        "province": "GIPUZKOA",
        "city": "DONOSTIA/SAN SEBASTIÁN",
        "altitude": 251.0,
        "longitude": "0202282",
        "latitude": "431823",
        "datum": "ETRS89"
      },
      {
        "id": "0367",
        "name": "GIRONA/COSTA BRAVA",
        "province": "GIRONA",
        "city": "VILOBÍ D'ONYAR",
        "altitude": 143.0,
        "longitude": "0245481",
        "latitude": "415442",
        "datum": "ETRS89"
      },
      {
        "id": "5530E",
        "name": "GRANADA/AEROPUERTO",
        "province": "GRANADA",
        "city": "CHAUCHINA",
        "altitude": 567.0,
        "longitude": "0347222",
        "latitude": "371123",
        "datum": "ETRS89"
      },
      {
        "id": "5514",
        "name": "GRANADA/BASE AÉREA",
        "province": "GRANADA",
        "city": "ALHENDÍN",
        "altitude": 687.0,
        "longitude": "0337532",
        "latitude": "370814",
        "datum": "ETRS89"
      },
      {
        "id": "3013",
        "name": "MOLINA DE ARAGÓN",
        "province": "GUADALAJARA",
        "city": "MOLINA DE ARAGÓN",
        "altitude": 1062.0,
        "longitude": "0152442",
        "latitude": "405030",
        "datum": "ETRS89"
      },
      {
        "id": "4642E",
        "name": "HUELVA, RONDA ESTE",
        "province": "HUELVA",
        "city": "HUELVA",
        "altitude": 19.0,
        "longitude": "0654422",
        "latitude": "371642",
        "datum": "ETRS89"
      },
      {
        "id": "9898",
        "name": "HUESCA/PIRINEOS",
        "province": "HUESCA",
        "city": "ALCALÁ DEL OBISPO",
        "altitude": 546.0,
        "longitude": "0019322",
        "latitude": "420504",
        "datum": "ETRS89"
      },
      {
        "id": "5270B",
        "name": "JAÉN",
        "province": "JAEN",
        "city": "JAÉN",
        "altitude": 580.0,
        "longitude": "0348322",
        "latitude": "374639",
        "datum": "ETRS89"
      },
      {
        "id": "9170",
        "name": "LOGROÑO/AGONCILLO",
        "province": "LA RIOJA",
        "city": "AGONCILLO",
        "altitude": 353.0,
        "longitude": "0219522",
        "latitude": "422708",
        "datum": "ETRS89"
      },
      {
        "id": "C249I",
        "name": "FUERTEVENTURA/AEROPUERTO",
        "province": "LAS PALMAS",
        "city": "PUERTO DEL ROSARIO",
        "altitude": 25.0,
        "longitude": "1351472",
        "latitude": "282641",
        "datum": "REGCAN95"
      },
      {
        "id": "C649I",
        "name": "GRAN CANARIA/AEROPUERTO",
        "province": "LAS PALMAS",
        "city": "INGENIO",
        "altitude": 32.0,
        "longitude": "1523432",
        "latitude": "275504",
        "datum": "REGCAN95"
      },
      {
        "id": "C029O",
        "name": "LANZAROTE/AEROPUERTO",
        "province": "LAS PALMAS",
        "city": "SAN BARTOLOMÉ",
        "altitude": 14.0,
        "longitude": "1336012",
        "latitude": "285707",
        "datum": "REGCAN95"
      },
      {
        "id": "2661",
        "name": "LEÓN/VIRGEN DEL CAMINO",
        "province": "LEON",
        "city": "VALVERDE DE LA VIRGEN",
        "altitude": 912.0,
        "longitude": "0539042",
        "latitude": "423518",
        "datum": "ETRS89"
      },
      {
        "id": "1549",
        "name": "PONFERRADA",
        "province": "LEON",
        "city": "PONFERRADA",
        "altitude": 534.0,
        "longitude": "0636002",
        "latitude": "423350",
        "datum": "ETRS89"
      },
      {
        "id": "9771C",
        "name": "LLEIDA",
        "province": "LLEIDA",
        "city": "LLEIDA",
        "altitude": 185.0,
        "longitude": "0035531",
        "latitude": "413734",
        "datum": "ETRS89"
      },
      {
        "id": "1505",
        "name": "LUGO/ROZAS",
        "province": "LUGO",
        "city": "CASTRO DE REI",
        "altitude": 445.0,
        "longitude": "0727272",
        "latitude": "430641",
        "datum": "ETRS89"
      },
      {
        "id": "3191E",
        "name": "COLMENAR VIEJO/FAMET",
        "province": "MADRID",
        "city": "COLMENAR VIEJO",
        "altitude": 1004.0,
        "longitude": "0345542",
        "latitude": "404146",
        "datum": "ETRS89"
      },
      {
        "id": "3129",
        "name": "MADRID/BARAJAS",
        "province": "MADRID",
        "city": "MADRID",
        "altitude": 609.0,
        "longitude": "0333202",
        "latitude": "402800",
        "datum": "ETRS89"
      },
      {
        "id": "3196",
        "name": "MADRID/CUATRO VIENTOS",
        "province": "MADRID",
        "city": "MADRID",
        "altitude": 690.0,
        "longitude": "0347102",
        "latitude": "402232",
        "datum": "ETRS89"
      },
      {
        "id": "3200",
        "name": "MADRID/GETAFE",
        "province": "MADRID",
        "city": "GETAFE",
        "altitude": 620.0,
        "longitude": "0343202",
        "latitude": "401758",
        "datum": "ETRS89"
      },
      {
        "id": "3195",
        "name": "MADRID,RETIRO",
        "province": "MADRID",
        "city": "MADRID",
        "altitude": 667.0,
        "longitude": "0340412",
        "latitude": "402443",
        "datum": "ETRS89"
      },
      {
        "id": "3175",
        "name": "MADRID/TORREJÓN",
        "province": "MADRID",
        "city": "TORREJÓN DE ARDOZ",
        "altitude": 607.0,
        "longitude": "0326372",
        "latitude": "402919",
        "datum": "ETRS89"
      },
      {
        "id": "2462",
        "name": "NAVACERRADA,PUERTO",
        "province": "MADRID",
        "city": "CERCEDILLA",
        "altitude": 1894.0,
        "longitude": "0400382",
        "latitude": "404735",
        "datum": "ETRS89"
      },
      {
        "id": "6155A",
        "name": "MÁLAGA/AEROPUERTO",
        "province": "MALAGA",
        "city": "MÁLAGA",
        "altitude": 5.0,
        "longitude": "0428562",
        "latitude": "363958",
        "datum": "ETRS89"
      },
      {
        "id": "6000A",
        "name": "MELILLA",
        "province": "MELILLA",
        "city": "MELILLA",
        "altitude": 52.0,
        "longitude": "0257232",
        "latitude": "351635",
        "datum": "ETRS89"
      },
      {
        "id": "7178I",
        "name": "MURCIA",
        "province": "MURCIA",
        "city": "MURCIA",
        "altitude": 61.0,
        "longitude": "0110152",
        "latitude": "380007",
        "datum": "ETRS89"
      },
      {
        "id": "7228",
        "name": "MURCIA/ALCANTARILLA",
        "province": "MURCIA",
        "city": "MURCIA",
        "altitude": 75.0,
        "longitude": "0113432",
        "latitude": "375728",
        "datum": "ETRS89"
      },
      {
        "id": "7031",
        "name": "MURCIA/SAN JAVIER",
        "province": "MURCIA",
        "city": "SAN JAVIER",
        "altitude": 4.0,
        "longitude": "0048122",
        "latitude": "374720",
        "datum": "ETRS89"
      },
      {
        "id": "9262",
        "name": "PAMPLONA OBSERVATORIO",
        "province": "NAVARRA",
        "city": "PAMPLONA/IRUÑA",
        "altitude": 450.0,
        "longitude": "0138182",
        "latitude": "424904",
        "datum": "ETRS89"
      },
      {
        "id": "9263D",
        "name": "PAMPLONA/NOAIN",
        "province": "NAVARRA",
        "city": "GALAR",
        "altitude": 459.0,
        "longitude": "0139002",
        "latitude": "424637",
        "datum": "ETRS89"
      },
      {
        "id": "1690A",
        "name": "OURENSE",
        "province": "OURENSE",
        "city": "OURENSE",
        "altitude": 143.0,
        "longitude": "0751352",
        "latitude": "421931",
        "datum": "ETRS89"
      },
      {
        "id": "1484C",
        "name": "PONTEVEDRA",
        "province": "PONTEVEDRA",
        "city": "PONTEVEDRA",
        "altitude": 108.0,
        "longitude": "0836572",
        "latitude": "422618",
        "datum": "ETRS89"
      },
      {
        "id": "1495",
        "name": "VIGO/PEINADOR",
        "province": "PONTEVEDRA",
        "city": "REDONDELA",
        "altitude": 261.0,
        "longitude": "0837262",
        "latitude": "421419",
        "datum": "ETRS89"
      },
      {
        "id": "2867",
        "name": "SALAMANCA/MATACAN",
        "province": "SALAMANCA",
        "city": "CALVARRASA DE ABAJO",
        "altitude": 790.0,
        "longitude": "0529542",
        "latitude": "405734",
        "datum": "ETRS89"
      },
      {
        "id": "2870",
        "name": "SALAMANCA,OBS.",
        "province": "SALAMANCA",
        "city": "SALAMANCA",
        "altitude": 775.0,
        "longitude": "0539442",
        "latitude": "405727",
        "datum": "ETRS89"
      },
      {
        "id": "C929I",
        "name": "HIERRO/AEROPUERTO",
        "province": "SANTA CRUZ DE TENERIFE",
        "city": "VALVERDE",
        "altitude": 32.0,
        "longitude": "1753202",
        "latitude": "274908",
        "datum": "REGCAN95"
      },
      {
        "id": "C430E",
        "name": "IZAÑA",
        "province": "SANTA CRUZ DE TENERIFE",
        "city": "LA OROTAVA",
        "altitude": 2371.0,
        "longitude": "1629582",
        "latitude": "281832",
        "datum": "REGCAN95"
      },
      {
        "id": "C139E",
        "name": "LA PALMA/AEROPUERTO",
        "province": "SANTA CRUZ DE TENERIFE",
        "city": "BREÑA BAJA",
        "altitude": 33.0,
        "longitude": "1745182",
        "latitude": "283759",
        "datum": "REGCAN95"
      },
      {
        "id": "C449C",
        "name": "STA.CRUZ DE TENERIFE",
        "province": "SANTA CRUZ DE TENERIFE",
        "city": "SANTA CRUZ DE TENERIFE",
        "altitude": 35.0,
        "longitude": "1615192",
        "latitude": "282748",
        "datum": "REGCAN95"
      },
      {
        "id": "C447A",
        "name": "TENERIFE/LOS RODEOS",
        "province": "SANTA CRUZ DE TENERIFE",
        "city": "SAN CRISTÓBAL DE LA LAGUNA",
        "altitude": 632.0,
        "longitude": "1619462",
        "latitude": "282839",
        "datum": "REGCAN95"
      },
      {
        "id": "C429I",
        "name": "TENERIFE/SUR",
        "province": "SANTA CRUZ DE TENERIFE",
        "city": "GRANADILLA DE ABONA",
        "altitude": 64.0,
        "longitude": "1633402",
        "latitude": "280249",
        "datum": "REGCAN95"
      },
      {
        "id": "2465",
        "name": "SEGOVIA",
        "province": "SEGOVIA",
        "city": "SEGOVIA",
        "altitude": 1005.0,
        "longitude": "0407352",
        "latitude": "405643",
        "datum": "ETRS89"
      },
      {
        "id": "5796",
        "name": "MORÓN DE LA FRONTERA",
        "province": "SEVILLA",
        "city": "ARAHAL",
        "altitude": 87.0,
        "longitude": "0536412",
        "latitude": "370952",
        "datum": "ETRS89"
      },
      {
        "id": "5783",
        "name": "SEVILLA/SAN PABLO",
        "province": "SEVILLA",
        "city": "SEVILLA",
        "altitude": 34.0,
        "longitude": "0552452",
        "latitude": "372500",
        "datum": "ETRS89"
      },
      {
        "id": "2030",
        "name": "SORIA",
        "province": "SORIA",
        "city": "SORIA",
        "altitude": 1082.0,
        "longitude": "0228592",
        "latitude": "414630",
        "datum": "ETRS89"
      },
      {
        "id": "0016A",
        "name": "REUS/AEROPUERTO",
        "province": "TARRAGONA",
        "city": "REUS",
        "altitude": 71.0,
        "longitude": "0109491",
        "latitude": "410842",
        "datum": "ETRS89"
      },
      {
        "id": "9981A",
        "name": "TORTOSA",
        "province": "TARRAGONA",
        "city": "ROQUETES",
        "altitude": 50.0,
        "longitude": "0029361",
        "latitude": "404913",
        "datum": "ETRS89"
      },
      {
        "id": "9381I",
        "name": "CALAMOCHA",
        "province": "TERUEL",
        "city": "CALAMOCHA",
        "altitude": 890.0,
        "longitude": "0117362",
        "latitude": "405534",
        "datum": "ETRS89"
      },
      {
        "id": "8368U",
        "name": "TERUEL",
        "province": "TERUEL",
        "city": "TERUEL",
        "altitude": 900.0,
        "longitude": "0107272",
        "latitude": "402102",
        "datum": "ETRS89"
      },
      {
        "id": "3260B",
        "name": "TOLEDO",
        "province": "TOLEDO",
        "city": "TOLEDO",
        "altitude": 515.0,
        "longitude": "0402432",
        "latitude": "395305",
        "datum": "ETRS89"
      },
      {
        "id": "8416",
        "name": "VALENCIA",
        "province": "VALENCIA",
        "city": "VALÈNCIA",
        "altitude": 11.0,
        "longitude": "0021592",
        "latitude": "392850",
        "datum": "ETRS89"
      },
      {
        "id": "8414A",
        "name": "VALENCIA/AEROPUERTO",
        "province": "VALENCIA",
        "city": "MANISES",
        "altitude": 56.0,
        "longitude": "0028292",
        "latitude": "392906",
        "datum": "ETRS89"
      },
      {
        "id": "2422",
        "name": "VALLADOLID",
        "province": "VALLADOLID",
        "city": "VALLADOLID",
        "altitude": 735.0,
        "longitude": "0445162",
        "latitude": "413827",
        "datum": "ETRS89"
      },
      {
        "id": "2539",
        "name": "VALLADOLID/VILLANUBLA",
        "province": "VALLADOLID",
        "city": "VILLANUBLA",
        "altitude": 846.0,
        "longitude": "0451202",
        "latitude": "414243",
        "datum": "ETRS89"
      },
      {
        "id": "2614",
        "name": "ZAMORA",
        "province": "ZAMORA",
        "city": "ZAMORA",
        "altitude": 656.0,
        "longitude": "0544072",
        "latitude": "413056",
        "datum": "ETRS89"
      },
      {
        "id": "9390",
        "name": "DAROCA I",
        "province": "ZARAGOZA",
        "city": "DAROCA",
        "altitude": 779.0,
        "longitude": "0124362",
        "latitude": "410652",
        "datum": "ETRS89"
      },
      {
        "id": "9434",
        "name": "ZARAGOZA/AEROPUERTO",
        "province": "ZARAGOZA",
        "city": "ZARAGOZA",
        "altitude": 249.0,
        "longitude": "0100152",
        "latitude": "413938",
        "datum": "ETRS89"
      }
    ]
  },
  {
    "year": "2017",
    "is_aggregate": null,
    "stations": [
      {
        "id": "1387",
        "name": "A CORUÑA",
        "province": "A CORUÑA",
        "city": "A CORUÑA",
        "altitude": 58.0,
        "longitude": "0825172",
        "latitude": "432157",
        "datum": "ETRS89"
      },
      {
        "id": "1387E",
        "name": "A CORUÑA/ALVEDRO",
        "province": "A CORUÑA",
        "city": "CULLEREDO",
        "altitude": 98.0,
        "longitude": "0822192",
        "latitude": "431825",
        "datum": "ETRS89"
      },
      {
        "id": "1428",
        "name": "SANTIAGO DE COMPOSTELA/LABACOLLA",
        "province": "A CORUÑA",
        "city": "O PINO",
        "altitude": 370.0,
        "longitude": "0824382",
        "latitude": "425317",
        "datum": "ETRS89"
      },
      {
        "id": "8175",
        "name": "ALBACETE/LOS LLANOS",
        "province": "ALBACETE",
        "city": "ALBACETE",
        "altitude": 702.0,
        "longitude": "0151232",
        "latitude": "385715",
        "datum": "ETRS89"
      },
      {
        "id": "8178D",
        "name": "ALBACETE,OBS.",
        "province": "ALBACETE",
        "city": "ALBACETE",
        "altitude": 674.0,
        "longitude": "0151442",
        "latitude": "390020",
        "datum": "ETRS89"
      },
      {
        "id": "8025",
        "name": "ALICANTE",
        "province": "ALICANTE",
        "city": "ALICANTE/ALACANT",
        "altitude": 81.0,
        "longitude": "0029392",
        "latitude": "382221",
        "datum": "ETRS89"
      },
      {
        "id": "8019",
        "name": "ALICANTE-ELCHE/AEROPUERTO",
        "province": "ALICANTE",
        "city": "ELCHE/ELX",
        "altitude": 43.0,
        "longitude": "0034152",
        "latitude": "381658",
        "datum": "ETRS89"
      },
      {
        "id": "6325O",
        "name": "ALMERÍA/AEROPUERTO",
        "province": "ALMERIA",
        "city": "ALMERÍA",
        "altitude": 21.0,
        "longitude": "0221252",
        "latitude": "365047",
        "datum": "ETRS89"
      },
      {
        "id": "9091O",
        "name": "FORONDA-TXOKIZA",
        "province": "ARABA/ALAVA",
        "city": "VITORIA-GASTEIZ",
        "altitude": 513.0,
        "longitude": "0244062",
        "latitude": "425255",
        "datum": "ETRS89"
      },
      {
        "id": "1212E",
        "name": "ASTURIAS/AVILÉS",
        "province": "ASTURIAS",
        "city": "CASTRILLÓN",
        "altitude": 127.0,
        "longitude": "0602392",
        "latitude": "433401",
        "datum": "ETRS89"
      },
      {
        "id": "1208H",
        "name": "GIJÓN, MUSEL",
        "province": "ASTURIAS",
        "city": "GIJÓN",
        "altitude": 5.0,
        "longitude": "0542032",
        "latitude": "433336",
        "datum": "ETRS89"
      },
      {
        "id": "1249I",
        "name": "OVIEDO",
        "province": "ASTURIAS",
        "city": "OVIEDO",
        "altitude": 336.0,
        "longitude": "0552272",
        "latitude": "432112",
        "datum": "ETRS89"
      },
      {
        "id": "2444",
        "name": "ÁVILA",
        "province": "AVILA",
        "city": "ÁVILA",
        "altitude": 1130.0,
        "longitude": "0440482",
        "latitude": "403933",
        "datum": "ETRS89"
      },
      {
        "id": "4452",
        "name": "BADAJOZ/TALAVERA LA REAL",
        "province": "BADAJOZ",
        "city": "BADAJOZ",
        "altitude": 185.0,
        "longitude": "0648502",
        "latitude": "385300",
        "datum": "ETRS89"
      },
      {
        "id": "B954",
        "name": "IBIZA/ES CODOLÁ",
        "province": "BALEARES",
        "city": "SANT JOSEP DE SA TALAIA",
        "altitude": 6.0,
        "longitude": "0123041",
        "latitude": "385235",
        "datum": "ETRS89"
      },
      {
        "id": "B893",
        "name": "MENORCA/AEROPUERTO",
        "province": "BALEARES",
        "city": "MAÓ-MAHÓN",
        "altitude": 91.0,
        "longitude": "0412561",
        "latitude": "395117",
        "datum": "ETRS89"
      },
      {
        "id": "B228",
        "name": "PALMA DE MALLORCA, CMT",
        "province": "BALEARES",
        "city": "PALMA",
        "altitude": 3.0,
        "longitude": "0237311",
        "latitude": "393312",
        "datum": "ETRS89"
      },
      {
        "id": "B278",
        "name": "PALMA DE MALLORCA/SON SAN JUAN",
        "province": "BALEARES",
        "city": "PALMA",
        "altitude": 8.0,
        "longitude": "0244121",
        "latitude": "393339",
        "datum": "ETRS89"
      },
      {
        "id": "0200E",
        "name": "BARCELONA (FABRA)",
        "province": "BARCELONA",
        "city": "BARCELONA",
        "altitude": 408.0,
        "longitude": "0207271",
        "latitude": "412506",
        "datum": "ETRS89"
      },
      {
        "id": "0076",
        "name": "BARCELONA/AEROPUERTO",
        "province": "BARCELONA",
        "city": "EL PRAT DE LLOBREGAT",
        "altitude": 4.0,
        "longitude": "0204121",
        "latitude": "411734",
        "datum": "ETRS89"
      },
      {
        "id": "1082",
        "name": "BILBAO/AEROPUERTO",
        "province": "BIZKAIA",
        "city": "LOIU",
        "altitude": 42.0,
        "longitude": "0254232",
        "latitude": "431753",
        "datum": "ETRS89"
      },
      {
        "id": "2331",
        "name": "BURGOS/VILLAFRÍA",
        "province": "BURGOS",
        "city": "BURGOS",
        "altitude": 891.0,
        "longitude": "0337132",
        "latitude": "422125",
        "datum": "ETRS89"
      },
      {
        "id": "3469A",
        "name": "CÁCERES",
        "province": "CACERES",
        "city": "CÁCERES",
        "altitude": 394.0,
        "longitude": "0620202",
        "latitude": "392817",
        "datum": "ETRS89"
      },
      {
        "id": "5973",
        "name": "CÁDIZ,OBS.",
        "province": "CADIZ",
        "city": "CÁDIZ",
        "altitude": 2.0,
        "longitude": "0615282",
        "latitude": "362959",
        "datum": "ETRS89"
      },
      {
        "id": "5960",
        "name": "JEREZ DE LA FRONTERA/AEROPUERTO",
        "province": "CADIZ",
        "city": "JEREZ DE LA FRONTERA",
        "altitude": 27.0,
        "longitude": "0603212",
        "latitude": "364502",
        "datum": "ETRS89"
      },
      {
        "id": "5910",
        "name": "ROTA B.N.OBSERVATORIO'",
        "province": "CADIZ",
        "city": "ROTA",
        "altitude": 21.0,
        "longitude": "0619572",
        "latitude": "363820",
        "datum": "ETRS89"
      },
      {
        "id": "6001",
        "name": "TARIFA",
        "province": "CADIZ",
        "city": "TARIFA",
        "altitude": 32.0,
        "longitude": "0535562",
        "latitude": "360050",
        "datum": "ETRS89"
      },
      {
        "id": "1111",
        "name": "SANTANDER I,CMT",
        "province": "CANTABRIA",
        "city": "SANTANDER",
        "altitude": 52.0,
        "longitude": "0348022",
        "latitude": "432928",
        "datum": "ETRS89"
      },
      {
        "id": "1109",
        "name": "SANTANDER/PARAYAS",
        "province": "CANTABRIA",
        "city": "CAMARGO",
        "altitude": 3.0,
        "longitude": "0349322",
        "latitude": "432526",
        "datum": "ETRS89"
      },
      {
        "id": "8500A",
        "name": "CASTELLÓN-ALMASSORA",
        "province": "CASTELLON",
        "city": "ALMASSORA",
        "altitude": 43.0,
        "longitude": "0004192",
        "latitude": "395726",
        "datum": "ETRS89"
      },
      {
        "id": "5000C",
        "name": "CEUTA",
        "province": "CEUTA",
        "city": "CEUTA",
        "altitude": 87.0,
        "longitude": "0520492",
        "latitude": "355319",
        "datum": "ETRS89"
      },
      {
        "id": "4121",
        "name": "CIUDAD REAL",
        "province": "CIUDAD REAL",
        "city": "CIUDAD REAL",
        "altitude": 628.0,
        "longitude": "0355132",
        "latitude": "385921",
        "datum": "ETRS89"
      },
      {
        "id": "5402",
        "name": "CÓRDOBA/AEROPUERTO",
        "province": "CORDOBA",
        "city": "CÓRDOBA",
        "altitude": 90.0,
        "longitude": "0450482",
        "latitude": "375056",
        "datum": "ETRS89"
      },
      {
        "id": "8096",
        "name": "CUENCA",
        "province": "CUENCA",
        "city": "CUENCA",
        "altitude": 948.0,
        "longitude": "0207552",
        "latitude": "400402",
        "datum": "ETRS89"
      },
      {
        "id": "1014",
        "name": "HONDARRIBIA-MALKARROA",
        "province": "GIPUZKOA",
        "city": "HONDARRIBIA",
        "altitude": 4.0,
        "longitude": "0147322",
        "latitude": "432125",
        "datum": "ETRS89"
      },
      {
        "id": "1024E",
        "name": "SAN SEBASTIÁN,IGUELDO",
        "province": "GIPUZKOA",
        "city": "DONOSTIA/SAN SEBASTIÁN",
        "altitude": 251.0,
        "longitude": "0202282",
        "latitude": "431823",
        "datum": "ETRS89"
      },
      {
        "id": "0367",
        "name": "GIRONA/COSTA BRAVA",
        "province": "GIRONA",
        "city": "VILOBÍ D'ONYAR",
        "altitude": 143.0,
        "longitude": "0245481",
        "latitude": "415442",
        "datum": "ETRS89"
      },
      {
        "id": "5530E",
        "name": "GRANADA/AEROPUERTO",
        "province": "GRANADA",
        "city": "CHAUCHINA",
        "altitude": 567.0,
        "longitude": "0347222",
        "latitude": "371123",
        "datum": "ETRS89"
      },
      {
        "id": "5514",
        "name": "GRANADA/BASE AÉREA",
        "province": "GRANADA",
        "city": "ALHENDÍN",
        "altitude": 687.0,
        "longitude": "0337532",
        "latitude": "370814",
        "datum": "ETRS89"
      },
      {
        "id": "3013",
        "name": "MOLINA DE ARAGÓN",
        "province": "GUADALAJARA",
        "city": "MOLINA DE ARAGÓN",
        "altitude": 1062.0,
        "longitude": "0152442",
        "latitude": "405030",
        "datum": "ETRS89"
      },
      {
        "id": "4642E",
        "name": "HUELVA, RONDA ESTE",
        "province": "HUELVA",
        "city": "HUELVA",
        "altitude": 19.0,
        "longitude": "0654422",
        "latitude": "371642",
        "datum": "ETRS89"
      },
      {
        "id": "9898",
        "name": "HUESCA/PIRINEOS",
        "province": "HUESCA",
        "city": "ALCALÁ DEL OBISPO",
        "altitude": 546.0,
        "longitude": "0019322",
        "latitude": "420504",
        "datum": "ETRS89"
      },
      {
        "id": "5270B",
        "name": "JAÉN",
        "province": "JAEN",
        "city": "JAÉN",
        "altitude": 580.0,
        "longitude": "0348322",
        "latitude": "374639",
        "datum": "ETRS89"
      },
      {
        "id": "9170",
        "name": "LOGROÑO/AGONCILLO",
        "province": "LA RIOJA",
        "city": "AGONCILLO",
        "altitude": 353.0,
        "longitude": "0219522",
        "latitude": "422708",
        "datum": "ETRS89"
      },
      {
        "id": "C249I",
        "name": "FUERTEVENTURA/AEROPUERTO",
        "province": "LAS PALMAS",
        "city": "PUERTO DEL ROSARIO",
        "altitude": 25.0,
        "longitude": "1351472",
        "latitude": "282641",
        "datum": "REGCAN95"
      },
      {
        "id": "C649I",
        "name": "GRAN CANARIA/AEROPUERTO",
        "province": "LAS PALMAS",
        "city": "INGENIO",
        "altitude": 32.0,
        "longitude": "1523432",
        "latitude": "275504",
        "datum": "REGCAN95"
      },
      {
        "id": "C029O",
        "name": "LANZAROTE/AEROPUERTO",
        "province": "LAS PALMAS",
        "city": "SAN BARTOLOMÉ",
        "altitude": 14.0,
        "longitude": "1336012",
        "latitude": "285707",
        "datum": "REGCAN95"
      },
      {
        "id": "2661",
        "name": "LEÓN/VIRGEN DEL CAMINO",
        "province": "LEON",
        "city": "VALVERDE DE LA VIRGEN",
        "altitude": 912.0,
        "longitude": "0539042",
        "latitude": "423518",
        "datum": "ETRS89"
      },
      {
        "id": "1549",
        "name": "PONFERRADA",
        "province": "LEON",
        "city": "PONFERRADA",
        "altitude": 534.0,
        "longitude": "0636002",
        "latitude": "423350",
        "datum": "ETRS89"
      },
      {
        "id": "9771C",
        "name": "LLEIDA",
        "province": "LLEIDA",
        "city": "LLEIDA",
        "altitude": 185.0,
        "longitude": "0035531",
        "latitude": "413734",
        "datum": "ETRS89"
      },
      {
        "id": "1505",
        "name": "LUGO/ROZAS",
        "province": "LUGO",
        "city": "CASTRO DE REI",
        "altitude": 445.0,
        "longitude": "0727272",
        "latitude": "430641",
        "datum": "ETRS89"
      },
      {
        "id": "3191E",
        "name": "COLMENAR VIEJO/FAMET",
        "province": "MADRID",
        "city": "COLMENAR VIEJO",
        "altitude": 1004.0,
        "longitude": "0345542",
        "latitude": "404146",
        "datum": "ETRS89"
      },
      {
        "id": "3129",
        "name": "MADRID/BARAJAS",
        "province": "MADRID",
        "city": "MADRID",
        "altitude": 609.0,
        "longitude": "0333202",
        "latitude": "402800",
        "datum": "ETRS89"
      },
      {
        "id": "3196",
        "name": "MADRID/CUATRO VIENTOS",
        "province": "MADRID",
        "city": "MADRID",
        "altitude": 690.0,
        "longitude": "0347102",
        "latitude": "402232",
        "datum": "ETRS89"
      },
      {
        "id": "3200",
        "name": "MADRID/GETAFE",
        "province": "MADRID",
        "city": "GETAFE",
        "altitude": 620.0,
        "longitude": "0343202",
        "latitude": "401758",
        "datum": "ETRS89"
      },
      {
        "id": "3195",
        "name": "MADRID,RETIRO",
        "province": "MADRID",
        "city": "MADRID",
        "altitude": 667.0,
        "longitude": "0340412",
        "latitude": "402443",
        "datum": "ETRS89"
      },
      {
        "id": "3175",
        "name": "MADRID/TORREJÓN",
        "province": "MADRID",
        "city": "TORREJÓN DE ARDOZ",
        "altitude": 607.0,
        "longitude": "0326372",
        "latitude": "402919",
        "datum": "ETRS89"
      },
      {
        "id": "2462",
        "name": "NAVACERRADA,PUERTO",
        "province": "MADRID",
        "city": "CERCEDILLA",
        "altitude": 1894.0,
        "longitude": "0400382",
        "latitude": "404735",
        "datum": "ETRS89"
      },
      {
        "id": "6155A",
        "name": "MÁLAGA/AEROPUERTO",
        "province": "MALAGA",
        "city": "MÁLAGA",
        "altitude": 5.0,
        "longitude": "0428562",
        "latitude": "363958",
        "datum": "ETRS89"
      },
      {
        "id": "6000A",
        "name": "MELILLA",
        "province": "MELILLA",
        "city": "MELILLA",
        "altitude": 52.0,
        "longitude": "0257232",
        "latitude": "351635",
        "datum": "ETRS89"
      },
      {
        "id": "7178I",
        "name": "MURCIA",
        "province": "MURCIA",
        "city": "MURCIA",
        "altitude": 61.0,
        "longitude": "0110152",
        "latitude": "380007",
        "datum": "ETRS89"
      },
      {
        "id": "7228",
        "name": "MURCIA/ALCANTARILLA",
        "province": "MURCIA",
        "city": "MURCIA",
        "altitude": 75.0,
        "longitude": "0113432",
        "latitude": "375728",
        "datum": "ETRS89"
      },
      {
        "id": "7031",
        "name": "MURCIA/SAN JAVIER",
        "province": "MURCIA",
        "city": "SAN JAVIER",
        "altitude": 4.0,
        "longitude": "0048122",
        "latitude": "374720",
        "datum": "ETRS89"
      },
      {
        "id": "9262",
        "name": "PAMPLONA OBSERVATORIO",
        "province": "NAVARRA",
        "city": "PAMPLONA/IRUÑA",
        "altitude": 450.0,
        "longitude": "0138182",
        "latitude": "424904",
        "datum": "ETRS89"
      },
      {
        "id": "9263D",
        "name": "PAMPLONA/NOAIN",
        "province": "NAVARRA",
        "city": "GALAR",
        "altitude": 459.0,
        "longitude": "0139002",
        "latitude": "424637",
        "datum": "ETRS89"
      },
      {
        "id": "1690A",
        "name": "OURENSE",
        "province": "OURENSE",
        "city": "OURENSE",
        "altitude": 143.0,
        "longitude": "0751352",
        "latitude": "421931",
        "datum": "ETRS89"
      },
      {
        "id": "1484C",
        "name": "PONTEVEDRA",
        "province": "PONTEVEDRA",
        "city": "PONTEVEDRA",
        "altitude": 108.0,
        "longitude": "0836572",
        "latitude": "422618",
        "datum": "ETRS89"
      },
      {
        "id": "1495",
        "name": "VIGO/PEINADOR",
        "province": "PONTEVEDRA",
        "city": "REDONDELA",
        "altitude": 261.0,
        "longitude": "0837262",
        "latitude": "421419",
        "datum": "ETRS89"
      },
      {
        "id": "2867",
        "name": "SALAMANCA/MATACAN",
        "province": "SALAMANCA",
        "city": "CALVARRASA DE ABAJO",
        "altitude": 790.0,
        "longitude": "0529542",
        "latitude": "405734",
        "datum": "ETRS89"
      },
      {
        "id": "2870",
        "name": "SALAMANCA,OBS.",
        "province": "SALAMANCA",
        "city": "SALAMANCA",
        "altitude": 775.0,
        "longitude": "0539442",
        "latitude": "405727",
        "datum": "ETRS89"
      },
      {
        "id": "C929I",
        "name": "HIERRO/AEROPUERTO",
        "province": "SANTA CRUZ DE TENERIFE",
        "city": "VALVERDE",
        "altitude": 32.0,
        "longitude": "1753202",
        "latitude": "274908",
        "datum": "REGCAN95"
      },
      {
        "id": "C430E",
        "name": "IZAÑA",
        "province": "SANTA CRUZ DE TENERIFE",
        "city": "LA OROTAVA",
        "altitude": 2371.0,
        "longitude": "1629582",
        "latitude": "281832",
        "datum": "REGCAN95"
      },
      {
        "id": "C139E",
        "name": "LA PALMA/AEROPUERTO",
        "province": "SANTA CRUZ DE TENERIFE",
        "city": "BREÑA BAJA",
        "altitude": 33.0,
        "longitude": "1745182",
        "latitude": "283759",
        "datum": "REGCAN95"
      },
      {
        "id": "C449C",
        "name": "STA.CRUZ DE TENERIFE",
        "province": "SANTA CRUZ DE TENERIFE",
        "city": "SANTA CRUZ DE TENERIFE",
        "altitude": 35.0,
        "longitude": "1615192",
        "latitude": "282748",
        "datum": "REGCAN95"
      },
      {
        "id": "C447A",
        "name": "TENERIFE/LOS RODEOS",
        "province": "SANTA CRUZ DE TENERIFE",
        "city": "SAN CRISTÓBAL DE LA LAGUNA",
        "altitude": 632.0,
        "longitude": "1619462",
        "latitude": "282839",
        "datum": "REGCAN95"
      },
      {
        "id": "C429I",
        "name": "TENERIFE/SUR",
        "province": "SANTA CRUZ DE TENERIFE",
        "city": "GRANADILLA DE ABONA",
        "altitude": 64.0,
        "longitude": "1633402",
        "latitude": "280249",
        "datum": "REGCAN95"
      },
      {
        "id": "2465",
        "name": "SEGOVIA",
        "province": "SEGOVIA",
        "city": "SEGOVIA",
        "altitude": 1005.0,
        "longitude": "0407352",
        "latitude": "405643",
        "datum": "ETRS89"
      },
      {
        "id": "5796",
        "name": "MORÓN DE LA FRONTERA",
        "province": "SEVILLA",
        "city": "ARAHAL",
        "altitude": 87.0,
        "longitude": "0536412",
        "latitude": "370952",
        "datum": "ETRS89"
      },
      {
        "id": "5783",
        "name": "SEVILLA/SAN PABLO",
        "province": "SEVILLA",
        "city": "SEVILLA",
        "altitude": 34.0,
        "longitude": "0552452",
        "latitude": "372500",
        "datum": "ETRS89"
      },
      {
        "id": "2030",
        "name": "SORIA",
        "province": "SORIA",
        "city": "SORIA",
        "altitude": 1082.0,
        "longitude": "0228592",
        "latitude": "414630",
        "datum": "ETRS89"
      },
      {
        "id": "0016A",
        "name": "REUS/AEROPUERTO",
        "province": "TARRAGONA",
        "city": "REUS",
        "altitude": 71.0,
        "longitude": "0109491",
        "latitude": "410842",
        "datum": "ETRS89"
      },
      {
        "id": "9981A",
        "name": "TORTOSA",
        "province": "TARRAGONA",
        "city": "ROQUETES",
        "altitude": 50.0,
        "longitude": "0029361",
        "latitude": "404913",
        "datum": "ETRS89"
      },
      {
        "id": "9381I",
        "name": "CALAMOCHA",
        "province": "TERUEL",
        "city": "CALAMOCHA",
        "altitude": 890.0,
        "longitude": "0117362",
        "latitude": "405534",
        "datum": "ETRS89"
      },
      {
        "id": "8368U",
        "name": "TERUEL",
        "province": "TERUEL",
        "city": "TERUEL",
        "altitude": 900.0,
        "longitude": "0107272",
        "latitude": "402102",
        "datum": "ETRS89"
      },
      {
        "id": "3260B",
        "name": "TOLEDO",
        "province": "TOLEDO",
        "city": "TOLEDO",
        "altitude": 515.0,
        "longitude": "0402432",
        "latitude": "395305",
        "datum": "ETRS89"
      },
      {
        "id": "8416",
        "name": "VALENCIA",
        "province": "VALENCIA",
        "city": "VALÈNCIA",
        "altitude": 11.0,
        "longitude": "0021592",
        "latitude": "392850",
        "datum": "ETRS89"
      },
      {
        "id": "8414A",
        "name": "VALENCIA/AEROPUERTO",
        "province": "VALENCIA",
        "city": "MANISES",
        "altitude": 56.0,
        "longitude": "0028292",
        "latitude": "392906",
        "datum": "ETRS89"
      },
      {
        "id": "2422",
        "name": "VALLADOLID",
        "province": "VALLADOLID",
        "city": "VALLADOLID",
        "altitude": 735.0,
        "longitude": "0445162",
        "latitude": "413827",
        "datum": "ETRS89"
      },
      {
        "id": "2539",
        "name": "VALLADOLID/VILLANUBLA",
        "province": "VALLADOLID",
        "city": "VILLANUBLA",
        "altitude": 846.0,
        "longitude": "0451202",
        "latitude": "414243",
        "datum": "ETRS89"
      },
      {
        "id": "2614",
        "name": "ZAMORA",
        "province": "ZAMORA",
        "city": "ZAMORA",
        "altitude": 656.0,
        "longitude": "0544072",
        "latitude": "413056",
        "datum": "ETRS89"
      },
      {
        "id": "9390",
        "name": "DAROCA I",
        "province": "ZARAGOZA",
        "city": "DAROCA",
        "altitude": 779.0,
        "longitude": "0124362",
        "latitude": "410652",
        "datum": "ETRS89"
      },
      {
        "id": "9434",
        "name": "ZARAGOZA/AEROPUERTO",
        "province": "ZARAGOZA",
        "city": "ZARAGOZA",
        "altitude": 249.0,
        "longitude": "0100152",
        "latitude": "413938",
        "datum": "ETRS89"
      }
    ]
  },
  {
    "year": "2018",
    "is_aggregate": null,
    "stations": [
      {
        "id": "1387",
        "name": "A CORUÑA",
        "province": "A CORUÑA",
        "city": "A CORUÑA",
        "altitude": 58.0,
        "longitude": "0825172",
        "latitude": "432157",
        "datum": "ETRS89"
      },
      {
        "id": "1387E",
        "name": "A CORUÑA/ALVEDRO",
        "province": "A CORUÑA",
        "city": "CULLEREDO",
        "altitude": 98.0,
        "longitude": "0822192",
        "latitude": "431825",
        "datum": "ETRS89"
      },
      {
        "id": "1428",
        "name": "SANTIAGO DE COMPOSTELA/LABACOLLA",
        "province": "A CORUÑA",
        "city": "O PINO",
        "altitude": 370.0,
        "longitude": "0824382",
        "latitude": "425317",
        "datum": "ETRS89"
      },
      {
        "id": "8175",
        "name": "ALBACETE/LOS LLANOS",
        "province": "ALBACETE",
        "city": "ALBACETE",
        "altitude": 702.0,
        "longitude": "0151232",
        "latitude": "385715",
        "datum": "ETRS89"
      },
      {
        "id": "8178D",
        "name": "ALBACETE,OBS.",
        "province": "ALBACETE",
        "city": "ALBACETE",
        "altitude": 676.0,
        "longitude": "0151442",
        "latitude": "390020",
        "datum": "ETRS89"
      },
      {
        "id": "8025",
        "name": "ALICANTE",
        "province": "ALICANTE",
        "city": "ALICANTE/ALACANT",
        "altitude": 81.0,
        "longitude": "0029392",
        "latitude": "382221",
        "datum": "ETRS89"
      },
      {
        "id": "8019",
        "name": "ALICANTE-ELCHE/AEROPUERTO",
        "province": "ALICANTE",
        "city": "ELCHE/ELX",
        "altitude": 43.0,
        "longitude": "0034152",
        "latitude": "381658",
        "datum": "ETRS89"
      },
      {
        "id": "6325O",
        "name": "ALMERÍA/AEROPUERTO",
        "province": "ALMERIA",
        "city": "ALMERÍA",
        "altitude": 21.0,
        "longitude": "0221252",
        "latitude": "365047",
        "datum": "ETRS89"
      },
      {
        "id": "9091O",
        "name": "FORONDA-TXOKIZA",
        "province": "ARABA/ALAVA",
        "city": "VITORIA-GASTEIZ",
        "altitude": 513.0,
        "longitude": "0244062",
        "latitude": "425255",
        "datum": "ETRS89"
      },
      {
        "id": "1212E",
        "name": "ASTURIAS/AVILÉS",
        "province": "ASTURIAS",
        "city": "CASTRILLÓN",
        "altitude": 127.0,
        "longitude": "0602392",
        "latitude": "433401",
        "datum": "ETRS89"
      },
      {
        "id": "1208H",
        "name": "GIJÓN, MUSEL",
        "province": "ASTURIAS",
        "city": "GIJÓN",
        "altitude": 5.0,
        "longitude": "0542032",
        "latitude": "433336",
        "datum": "ETRS89"
      },
      {
        "id": "1249I",
        "name": "OVIEDO",
        "province": "ASTURIAS",
        "city": "OVIEDO",
        "altitude": 336.0,
        "longitude": "0552272",
        "latitude": "432112",
        "datum": "ETRS89"
      },
      {
        "id": "2444",
        "name": "ÁVILA",
        "province": "AVILA",
        "city": "ÁVILA",
        "altitude": 1130.0,
        "longitude": "0440482",
        "latitude": "403933",
        "datum": "ETRS89"
      },
      {
        "id": "4452",
        "name": "BADAJOZ/TALAVERA LA REAL",
        "province": "BADAJOZ",
        "city": "BADAJOZ",
        "altitude": 185.0,
        "longitude": "0648502",
        "latitude": "385300",
        "datum": "ETRS89"
      },
      {
        "id": "B954",
        "name": "IBIZA/ES CODOLÁ",
        "province": "BALEARES",
        "city": "SANT JOSEP DE SA TALAIA",
        "altitude": 6.0,
        "longitude": "0123041",
        "latitude": "385235",
        "datum": "ETRS89"
      },
      {
        "id": "B893",
        "name": "MENORCA/AEROPUERTO",
        "province": "BALEARES",
        "city": "MAÓ-MAHÓN",
        "altitude": 91.0,
        "longitude": "0412561",
        "latitude": "395117",
        "datum": "ETRS89"
      },
      {
        "id": "B228",
        "name": "PALMA DE MALLORCA, CMT",
        "province": "BALEARES",
        "city": "PALMA",
        "altitude": 3.0,
        "longitude": "0237311",
        "latitude": "393312",
        "datum": "ETRS89"
      },
      {
        "id": "B278",
        "name": "PALMA DE MALLORCA/SON SAN JUAN",
        "province": "BALEARES",
        "city": "PALMA",
        "altitude": 8.0,
        "longitude": "0244121",
        "latitude": "393339",
        "datum": "ETRS89"
      },
      {
        "id": "0200E",
        "name": "BARCELONA (FABRA)",
        "province": "BARCELONA",
        "city": "BARCELONA",
        "altitude": 408.0,
        "longitude": "0207271",
        "latitude": "412506",
        "datum": "ETRS89"
      },
      {
        "id": "0076",
        "name": "BARCELONA/AEROPUERTO",
        "province": "BARCELONA",
        "city": "EL PRAT DE LLOBREGAT",
        "altitude": 4.0,
        "longitude": "0204121",
        "latitude": "411734",
        "datum": "ETRS89"
      },
      {
        "id": "1082",
        "name": "BILBAO/AEROPUERTO",
        "province": "BIZKAIA",
        "city": "LOIU",
        "altitude": 42.0,
        "longitude": "0254232",
        "latitude": "431753",
        "datum": "ETRS89"
      },
      {
        "id": "2331",
        "name": "BURGOS/VILLAFRÍA",
        "province": "BURGOS",
        "city": "BURGOS",
        "altitude": 891.0,
        "longitude": "0337132",
        "latitude": "422125",
        "datum": "ETRS89"
      },
      {
        "id": "3469A",
        "name": "CÁCERES",
        "province": "CACERES",
        "city": "CÁCERES",
        "altitude": 394.0,
        "longitude": "0620202",
        "latitude": "392817",
        "datum": "ETRS89"
      },
      {
        "id": "5973",
        "name": "CÁDIZ,OBS.",
        "province": "CADIZ",
        "city": "CÁDIZ",
        "altitude": 2.0,
        "longitude": "0615282",
        "latitude": "362959",
        "datum": "ETRS89"
      },
      {
        "id": "5960",
        "name": "JEREZ DE LA FRONTERA/AEROPUERTO",
        "province": "CADIZ",
        "city": "JEREZ DE LA FRONTERA",
        "altitude": 27.0,
        "longitude": "0603212",
        "latitude": "364502",
        "datum": "ETRS89"
      },
      {
        "id": "5910",
        "name": "ROTA B.N.OBSERVATORIO'",
        "province": "CADIZ",
        "city": "ROTA",
        "altitude": 21.0,
        "longitude": "0619572",
        "latitude": "363820",
        "datum": "ETRS89"
      },
      {
        "id": "6001",
        "name": "TARIFA",
        "province": "CADIZ",
        "city": "TARIFA",
        "altitude": 32.0,
        "longitude": "0535562",
        "latitude": "360050",
        "datum": "ETRS89"
      },
      {
        "id": "1111",
        "name": "SANTANDER I,CMT",
        "province": "CANTABRIA",
        "city": "SANTANDER",
        "altitude": 52.0,
        "longitude": "0348022",
        "latitude": "432928",
        "datum": "ETRS89"
      },
      {
        "id": "1109",
        "name": "SANTANDER/PARAYAS",
        "province": "CANTABRIA",
        "city": "CAMARGO",
        "altitude": 3.0,
        "longitude": "0349322",
        "latitude": "432526",
        "datum": "ETRS89"
      },
      {
        "id": "8500A",
        "name": "CASTELLÓN-ALMASSORA",
        "province": "CASTELLON",
        "city": "ALMASSORA",
        "altitude": 43.0,
        "longitude": "0004192",
        "latitude": "395726",
        "datum": "ETRS89"
      },
      {
        "id": "5000C",
        "name": "CEUTA",
        "province": "CEUTA",
        "city": "CEUTA",
        "altitude": 87.0,
        "longitude": "0520492",
        "latitude": "355319",
        "datum": "ETRS89"
      },
      {
        "id": "4121",
        "name": "CIUDAD REAL",
        "province": "CIUDAD REAL",
        "city": "CIUDAD REAL",
        "altitude": 628.0,
        "longitude": "0355132",
        "latitude": "385921",
        "datum": "ETRS89"
      },
      {
        "id": "5402",
        "name": "CÓRDOBA/AEROPUERTO",
        "province": "CORDOBA",
        "city": "CÓRDOBA",
        "altitude": 90.0,
        "longitude": "0450482",
        "latitude": "375056",
        "datum": "ETRS89"
      },
      {
        "id": "8096",
        "name": "CUENCA",
        "province": "CUENCA",
        "city": "CUENCA",
        "altitude": 948.0,
        "longitude": "0207552",
        "latitude": "400402",
        "datum": "ETRS89"
      },
      {
        "id": "1014",
        "name": "HONDARRIBIA-MALKARROA",
        "province": "GIPUZKOA",
        "city": "HONDARRIBIA",
        "altitude": 4.0,
        "longitude": "0147322",
        "latitude": "432125",
        "datum": "ETRS89"
      },
      {
        "id": "1024E",
        "name": "SAN SEBASTIÁN,IGUELDO",
        "province": "GIPUZKOA",
        "city": "DONOSTIA/SAN SEBASTIÁN",
        "altitude": 251.0,
        "longitude": "0202282",
        "latitude": "431823",
        "datum": "ETRS89"
      },
      {
        "id": "0367",
        "name": "GIRONA/COSTA BRAVA",
        "province": "GIRONA",
        "city": "VILOBÍ D'ONYAR",
        "altitude": 143.0,
        "longitude": "0245481",
        "latitude": "415442",
        "datum": "ETRS89"
      },
      {
        "id": "5530E",
        "name": "GRANADA/AEROPUERTO",
        "province": "GRANADA",
        "city": "CHAUCHINA",
        "altitude": 567.0,
        "longitude": "0347222",
        "latitude": "371123",
        "datum": "ETRS89"
      },
      {
        "id": "5514",
        "name": "GRANADA/BASE AÉREA",
        "province": "GRANADA",
        "city": "ALHENDÍN",
        "altitude": 687.0,
        "longitude": "0337532",
        "latitude": "370814",
        "datum": "ETRS89"
      },
      {
        "id": "3013",
        "name": "MOLINA DE ARAGÓN",
        "province": "GUADALAJARA",
        "city": "MOLINA DE ARAGÓN",
        "altitude": 1062.0,
        "longitude": "0152442",
        "latitude": "405030",
        "datum": "ETRS89"
      },
      {
        "id": "4642E",
        "name": "HUELVA, RONDA ESTE",
        "province": "HUELVA",
        "city": "HUELVA",
        "altitude": 19.0,
        "longitude": "0654422",
        "latitude": "371642",
        "datum": "ETRS89"
      },
      {
        "id": "9898",
        "name": "HUESCA/PIRINEOS",
        "province": "HUESCA",
        "city": "ALCALÁ DEL OBISPO",
        "altitude": 546.0,
        "longitude": "0019322",
        "latitude": "420504",
        "datum": "ETRS89"
      },
      {
        "id": "5270B",
        "name": "JAÉN",
        "province": "JAEN",
        "city": "JAÉN",
        "altitude": 580.0,
        "longitude": "0348322",
        "latitude": "374639",
        "datum": "ETRS89"
      },
      {
        "id": "9170",
        "name": "LOGROÑO/AGONCILLO",
        "province": "LA RIOJA",
        "city": "AGONCILLO",
        "altitude": 353.0,
        "longitude": "0219522",
        "latitude": "422708",
        "datum": "ETRS89"
      },
      {
        "id": "C249I",
        "name": "FUERTEVENTURA/AEROPUERTO",
        "province": "LAS PALMAS",
        "city": "PUERTO DEL ROSARIO",
        "altitude": 25.0,
        "longitude": "1351472",
        "latitude": "282641",
        "datum": "REGCAN95"
      },
      {
        "id": "C649I",
        "name": "GRAN CANARIA/AEROPUERTO",
        "province": "LAS PALMAS",
        "city": "INGENIO",
        "altitude": 32.0,
        "longitude": "1523432",
        "latitude": "275504",
        "datum": "REGCAN95"
      },
      {
        "id": "C029O",
        "name": "LANZAROTE/AEROPUERTO",
        "province": "LAS PALMAS",
        "city": "SAN BARTOLOMÉ",
        "altitude": 14.0,
        "longitude": "1336012",
        "latitude": "285707",
        "datum": "REGCAN95"
      },
      {
        "id": "2661",
        "name": "LEÓN/VIRGEN DEL CAMINO",
        "province": "LEON",
        "city": "VALVERDE DE LA VIRGEN",
        "altitude": 912.0,
        "longitude": "0539042",
        "latitude": "423518",
        "datum": "ETRS89"
      },
      {
        "id": "1549",
        "name": "PONFERRADA",
        "province": "LEON",
        "city": "PONFERRADA",
        "altitude": 534.0,
        "longitude": "0636002",
        "latitude": "423350",
        "datum": "ETRS89"
      },
      {
        "id": "9771C",
        "name": "LLEIDA",
        "province": "LLEIDA",
        "city": "LLEIDA",
        "altitude": 185.0,
        "longitude": "0035531",
        "latitude": "413734",
        "datum": "ETRS89"
      },
      {
        "id": "1505",
        "name": "LUGO/ROZAS",
        "province": "LUGO",
        "city": "CASTRO DE REI",
        "altitude": 445.0,
        "longitude": "0727272",
        "latitude": "430641",
        "datum": "ETRS89"
      },
      {
        "id": "3191E",
        "name": "COLMENAR VIEJO/FAMET",
        "province": "MADRID",
        "city": "COLMENAR VIEJO",
        "altitude": 1004.0,
        "longitude": "0345542",
        "latitude": "404146",
        "datum": "ETRS89"
      },
      {
        "id": "3195",
        "name": "MADRID, RETIRO",
        "province": "MADRID",
        "city": "MADRID",
        "altitude": 667.0,
        "longitude": "0340412",
        "latitude": "402443",
        "datum": "ETRS89"
      },
      {
        "id": "3129",
        "name": "MADRID/BARAJAS",
        "province": "MADRID",
        "city": "MADRID",
        "altitude": 609.0,
        "longitude": "0333202",
        "latitude": "402800",
        "datum": "ETRS89"
      },
      {
        "id": "3196",
        "name": "MADRID/CUATRO VIENTOS",
        "province": "MADRID",
        "city": "MADRID",
        "altitude": 690.0,
        "longitude": "0347102",
        "latitude": "402232",
        "datum": "ETRS89"
      },
      {
        "id": "3200",
        "name": "MADRID/GETAFE",
        "province": "MADRID",
        "city": "GETAFE",
        "altitude": 620.0,
        "longitude": "0343202",
        "latitude": "401758",
        "datum": "ETRS89"
      },
      {
        "id": "3175",
        "name": "MADRID/TORREJÓN",
        "province": "MADRID",
        "city": "TORREJÓN DE ARDOZ",
        "altitude": 607.0,
        "longitude": "0326372",
        "latitude": "402919",
        "datum": "ETRS89"
      },
      {
        "id": "2462",
        "name": "NAVACERRADA,PUERTO",
        "province": "MADRID",
        "city": "CERCEDILLA",
        "altitude": 1894.0,
        "longitude": "0400382",
        "latitude": "404735",
        "datum": "ETRS89"
      },
      {
        "id": "6155A",
        "name": "MÁLAGA/AEROPUERTO",
        "province": "MALAGA",
        "city": "MÁLAGA",
        "altitude": 5.0,
        "longitude": "0428562",
        "latitude": "363958",
        "datum": "ETRS89"
      },
      {
        "id": "6000A",
        "name": "MELILLA",
        "province": "MELILLA",
        "city": "MELILLA",
        "altitude": 52.0,
        "longitude": "0257232",
        "latitude": "351635",
        "datum": "ETRS89"
      },
      {
        "id": "7178I",
        "name": "MURCIA",
        "province": "MURCIA",
        "city": "MURCIA",
        "altitude": 61.0,
        "longitude": "0110152",
        "latitude": "380007",
        "datum": "ETRS89"
      },
      {
        "id": "7228",
        "name": "MURCIA/ALCANTARILLA",
        "province": "MURCIA",
        "city": "MURCIA",
        "altitude": 75.0,
        "longitude": "0113432",
        "latitude": "375728",
        "datum": "ETRS89"
      },
      {
        "id": "7031",
        "name": "MURCIA/SAN JAVIER",
        "province": "MURCIA",
        "city": "SAN JAVIER",
        "altitude": 4.0,
        "longitude": "0048122",
        "latitude": "374720",
        "datum": "ETRS89"
      },
      {
        "id": "9262",
        "name": "PAMPLONA OBSERVATORIO",
        "province": "NAVARRA",
        "city": "PAMPLONA/IRUÑA",
        "altitude": 450.0,
        "longitude": "0138182",
        "latitude": "424904",
        "datum": "ETRS89"
      },
      {
        "id": "9263D",
        "name": "PAMPLONA/NOAIN",
        "province": "NAVARRA",
        "city": "GALAR",
        "altitude": 459.0,
        "longitude": "0139002",
        "latitude": "424637",
        "datum": "ETRS89"
      },
      {
        "id": "1690A",
        "name": "OURENSE",
        "province": "OURENSE",
        "city": "OURENSE",
        "altitude": 143.0,
        "longitude": "0751352",
        "latitude": "421931",
        "datum": "ETRS89"
      },
      {
        "id": "1484C",
        "name": "PONTEVEDRA",
        "province": "PONTEVEDRA",
        "city": "PONTEVEDRA",
        "altitude": 108.0,
        "longitude": "0836572",
        "latitude": "422618",
        "datum": "ETRS89"
      },
      {
        "id": "1495",
        "name": "VIGO/PEINADOR",
        "province": "PONTEVEDRA",
        "city": "REDONDELA",
        "altitude": 261.0,
        "longitude": "0837262",
        "latitude": "421419",
        "datum": "ETRS89"
      },
      {
        "id": "2867",
        "name": "SALAMANCA/MATACAN",
        "province": "SALAMANCA",
        "city": "CALVARRASA DE ABAJO",
        "altitude": 790.0,
        "longitude": "0529542",
        "latitude": "405734",
        "datum": "ETRS89"
      },
      {
        "id": "2870",
        "name": "SALAMANCA,OBS.",
        "province": "SALAMANCA",
        "city": "SALAMANCA",
        "altitude": 775.0,
        "longitude": "0539442",
        "latitude": "405727",
        "datum": "ETRS89"
      },
      {
        "id": "C929I",
        "name": "HIERRO/AEROPUERTO",
        "province": "SANTA CRUZ DE TENERIFE",
        "city": "VALVERDE",
        "altitude": 32.0,
        "longitude": "1753202",
        "latitude": "274908",
        "datum": "REGCAN95"
      },
      {
        "id": "C430E",
        "name": "IZAÑA",
        "province": "SANTA CRUZ DE TENERIFE",
        "city": "LA OROTAVA",
        "altitude": 2371.0,
        "longitude": "1629582",
        "latitude": "281832",
        "datum": "REGCAN95"
      },
      {
        "id": "C139E",
        "name": "LA PALMA/AEROPUERTO",
        "province": "SANTA CRUZ DE TENERIFE",
        "city": "BREÑA BAJA",
        "altitude": 33.0,
        "longitude": "1745182",
        "latitude": "283759",
        "datum": "REGCAN95"
      },
      {
        "id": "C449C",
        "name": "STA.CRUZ DE TENERIFE",
        "province": "SANTA CRUZ DE TENERIFE",
        "city": "SANTA CRUZ DE TENERIFE",
        "altitude": 35.0,
        "longitude": "1615192",
        "latitude": "282748",
        "datum": "REGCAN95"
      },
      {
        "id": "C447A",
        "name": "TENERIFE/LOS RODEOS",
        "province": "SANTA CRUZ DE TENERIFE",
        "city": "SAN CRISTÓBAL DE LA LAGUNA",
        "altitude": 632.0,
        "longitude": "1619462",
        "latitude": "282839",
        "datum": "REGCAN95"
      },
      {
        "id": "C429I",
        "name": "TENERIFE/SUR",
        "province": "SANTA CRUZ DE TENERIFE",
        "city": "GRANADILLA DE ABONA",
        "altitude": 64.0,
        "longitude": "1633402",
        "latitude": "280249",
        "datum": "REGCAN95"
      },
      {
        "id": "2465",
        "name": "SEGOVIA",
        "province": "SEGOVIA",
        "city": "SEGOVIA",
        "altitude": 1005.0,
        "longitude": "0407352",
        "latitude": "405643",
        "datum": "ETRS89"
      },
      {
        "id": "5796",
        "name": "MORÓN DE LA FRONTERA",
        "province": "SEVILLA",
        "city": "ARAHAL",
        "altitude": 87.0,
        "longitude": "0536412",
        "latitude": "370952",
        "datum": "ETRS89"
      },
      {
        "id": "5783",
        "name": "SEVILLA/SAN PABLO",
        "province": "SEVILLA",
        "city": "SEVILLA",
        "altitude": 34.0,
        "longitude": "0552452",
        "latitude": "372500",
        "datum": "ETRS89"
      },
      {
        "id": "2030",
        "name": "SORIA",
        "province": "SORIA",
        "city": "SORIA",
        "altitude": 1082.0,
        "longitude": "0228592",
        "latitude": "414630",
        "datum": "ETRS89"
      },
      {
        "id": "0016A",
        "name": "REUS/AEROPUERTO",
        "province": "TARRAGONA",
        "city": "REUS",
        "altitude": 71.0,
        "longitude": "0109491",
        "latitude": "410842",
        "datum": "ETRS89"
      },
      {
        "id": "9981A",
        "name": "TORTOSA",
        "province": "TARRAGONA",
        "city": "ROQUETES",
        "altitude": 50.0,
        "longitude": "0029361",
        "latitude": "404913",
        "datum": "ETRS89"
      },
      {
        "id": "9381I",
        "name": "CALAMOCHA",
        "province": "TERUEL",
        "city": "CALAMOCHA",
        "altitude": 890.0,
        "longitude": "0117362",
        "latitude": "405534",
        "datum": "ETRS89"
      },
      {
        "id": "8368U",
        "name": "TERUEL",
        "province": "TERUEL",
        "city": "TERUEL",
        "altitude": 900.0,
        "longitude": "0107272",
        "latitude": "402102",
        "datum": "ETRS89"
      },
      {
        "id": "3260B",
        "name": "TOLEDO",
        "province": "TOLEDO",
        "city": "TOLEDO",
        "altitude": 515.0,
        "longitude": "0402432",
        "latitude": "395305",
        "datum": "ETRS89"
      },
      {
        "id": "8416",
        "name": "VALENCIA",
        "province": "VALENCIA",
        "city": "VALÈNCIA",
        "altitude": 11.0,
        "longitude": "0021592",
        "latitude": "392850",
        "datum": "ETRS89"
      },
      {
        "id": "8414A",
        "name": "VALENCIA/AEROPUERTO",
        "province": "VALENCIA",
        "city": "MANISES",
        "altitude": 56.0,
        "longitude": "0028292",
        "latitude": "392906",
        "datum": "ETRS89"
      },
      {
        "id": "2422",
        "name": "VALLADOLID",
        "province": "VALLADOLID",
        "city": "VALLADOLID",
        "altitude": 735.0,
        "longitude": "0445162",
        "latitude": "413827",
        "datum": "ETRS89"
      },
      {
        "id": "2539",
        "name": "VALLADOLID/VILLANUBLA",
        "province": "VALLADOLID",
        "city": "VILLANUBLA",
        "altitude": 846.0,
        "longitude": "0451202",
        "latitude": "414243",
        "datum": "ETRS89"
      },
      {
        "id": "2614",
        "name": "ZAMORA",
        "province": "ZAMORA",
        "city": "ZAMORA",
        "altitude": 656.0,
        "longitude": "0544072",
        "latitude": "413056",
        "datum": "ETRS89"
      },
      {
        "id": "9390",
        "name": "DAROCA I",
        "province": "ZARAGOZA",
        "city": "DAROCA",
        "altitude": 779.0,
        "longitude": "0124362",
        "latitude": "410652",
        "datum": "ETRS89"
      },
      {
        "id": "9434",
        "name": "ZARAGOZA/AEROPUERTO",
        "province": "ZARAGOZA",
        "city": "ZARAGOZA",
        "altitude": 249.0,
        "longitude": "0100152",
        "latitude": "413938",
        "datum": "ETRS89"
      }
    ]
  },
  {
    "year": "1981 - 2010 average (2016 dataset)",
    "is_aggregate": "2016",
    "stations": []
  },
  {
    "year": "1981 - 2010 median (2016 dataset)",
    "is_aggregate": "2016",
    "stations": []
  },
  {
    "year": "1981 - 2010 minimum (2016 dataset)",
    "is_aggregate": "2016",
    "stations": []
  },
  {
    "year": "1981 - 2010 quintile 1 (2016 dataset)",
    "is_aggregate": "2016",
    "stations": []
  },
  {
    "year": "1981 - 2010 quintile 2 (2016 dataset)",
    "is_aggregate": "2016",
    "stations": []
  },
  {
    "year": "1981 - 2010 quintile 3 (2016 dataset)",
    "is_aggregate": "2016",
    "stations": []
  },
  {
    "year": "1981 - 2010 quintile 4 (2016 dataset)",
    "is_aggregate": "2016",
    "stations": []
  },
  {
    "year": "1981 - 2010 maximum (2016 dataset)",
    "is_aggregate": "2016",
    "stations": []
  },
  {
    "year": "1981 - 2010 average (2017 dataset)",
    "is_aggregate": "2017",
    "stations": []
  },
  {
    "year": "1981 - 2010 median (2017 dataset)",
    "is_aggregate": "2017",
    "stations": []
  },
  {
    "year": "1981 - 2010 minimum (2017 dataset)",
    "is_aggregate": "2017",
    "stations": []
  },
  {
    "year": "1981 - 2010 quintile 1 (2017 dataset)",
    "is_aggregate": "2017",
    "stations": []
  },
  {
    "year": "1981 - 2010 quintile 2 (2017 dataset)",
    "is_aggregate": "2017",
    "stations": []
  },
  {
    "year": "1981 - 2010 quintile 3 (2017 dataset)",
    "is_aggregate": "2017",
    "stations": []
  },
  {
    "year": "1981 - 2010 quintile 4 (2017 dataset)",
    "is_aggregate": "2017",
    "stations": []
  },
  {
    "year": "1981 - 2010 maximum (2017 dataset)",
    "is_aggregate": "2017",
    "stations": []
  },
  {
    "year": "1981 - 2010 average (2018 dataset)",
    "is_aggregate": "2018",
    "stations": []
  },
  {
    "year": "1981 - 2010 median (2018 dataset)",
    "is_aggregate": "2018",
    "stations": []
  },
  {
    "year": "1981 - 2010 minimum (2018 dataset)",
    "is_aggregate": "2018",
    "stations": []
  },
  {
    "year": "1981 - 2010 quintile 1 (2018 dataset)",
    "is_aggregate": "2018",
    "stations": []
  },
  {
    "year": "1981 - 2010 quintile 2 (2018 dataset)",
    "is_aggregate": "2018",
    "stations": []
  },
  {
    "year": "1981 - 2010 quintile 3 (2018 dataset)",
    "is_aggregate": "2018",
    "stations": []
  },
  {
    "year": "1981 - 2010 quintile 4 (2018 dataset)",
    "is_aggregate": "2018",
    "stations": []
  },
  {
    "year": "1981 - 2010 maximum (2018 dataset)",
    "is_aggregate": "2018",
    "stations": []
  }
]